{
   "type": "FeatureCollection",
   "features": [
  {
    "type": "Feature",
    "geometry": {
       "type": "Point",
       "coordinates":  [ 145.72157,15.20293 ]
    },
    "properties": {
    "ID":1,
    "place":"Dongsha Islands",
    "location":"China",
    "region":"Dongsha Islands, China"
    }
  },
  {
    "type": "Feature",
    "geometry": {
       "type": "Point",
       "coordinates":  [ 109.293999,21.5394 ]
    },
    "properties": {
    "ID":2,
    "place":"Beihai",
    "location":"China",
    "region":"Beihai, China"
    }
  },
  {
    "type": "Feature",
    "geometry": {
       "type": "Point",
       "coordinates":  [ 108.654327,21.98711 ]
    },
    "properties": {
    "ID":3,
    "place":"Qinzhou",
    "location":"China",
    "region":"Qinzhou, China"
    }
  },
  {
    "type": "Feature",
    "geometry": {
       "type": "Point",
       "coordinates":  [ 112.304192,22.18568 ]
    },
    "properties": {
    "ID":4,
    "place":"Enping",
    "location":"China",
    "region":"Enping, China"
    }
  },
  {
    "type": "Feature",
    "geometry": {
       "type": "Point",
       "coordinates":  [ 112.79377,22.24544 ]
    },
    "properties": {
    "ID":5,
    "place":"Taishan",
    "location":"China",
    "region":"Taishan, China"
    }
  },
  {
    "type": "Feature",
    "geometry": {
       "type": "Point",
       "coordinates":  [ 112.698326,22.37884 ]
    },
    "properties": {
    "ID":6,
    "place":"Kaiping",
    "location":"China",
    "region":"Kaiping, China"
    }
  },
  {
    "type": "Feature",
    "geometry": {
       "type": "Point",
       "coordinates":  [ 108.1719971,22.60829926 ]
    },
    "properties": {
    "ID":7,
    "place":"Nanning",
    "location":"China",
    "region":"Nanning, China"
    }
  },
  {
    "type": "Feature",
    "geometry": {
       "type": "Point",
       "coordinates":  [ 113.810997,22.63929939 ]
    },
    "properties": {
    "ID":8,
    "place":"Shenzhen",
    "location":"China",
    "region":"Shenzhen, China"
    }
  },
  {
    "type": "Feature",
    "geometry": {
       "type": "Point",
       "coordinates":  [ 113.7493,23.0475 ]
    },
    "properties": {
    "ID":9,
    "place":"Dongguan",
    "location":"China",
    "region":"Dongguan, China"
    }
  },
  {
    "type": "Feature",
    "geometry": {
       "type": "Point",
       "coordinates":  [ 113.84,23.11389 ]
    },
    "properties": {
    "ID":10,
    "place":"Shilong",
    "location":"China",
    "region":"Shilong, China"
    }
  },
  {
    "type": "Feature",
    "geometry": {
       "type": "Point",
       "coordinates":  [ 113.2990036,23.39240074 ]
    },
    "properties": {
    "ID":11,
    "place":"Guangzhou",
    "location":"China",
    "region":"Guangzhou, China"
    }
  },
  {
    "type": "Feature",
    "geometry": {
       "type": "Point",
       "coordinates":  [ 116.5033,23.552 ]
    },
    "properties": {
    "ID":12,
    "place":"Shantou",
    "location":"China",
    "region":"Shantou, China"
    }
  },
  {
    "type": "Feature",
    "geometry": {
       "type": "Point",
       "coordinates":  [ 118.1279984,24.54400063 ]
    },
    "properties": {
    "ID":13,
    "place":"Xiamen",
    "location":"China",
    "region":"Xiamen, China"
    }
  },
  {
    "type": "Feature",
    "geometry": {
       "type": "Point",
       "coordinates":  [ 101.864143,25.181129 ]
    },
    "properties": {
    "ID":14,
    "place":"Yunnan",
    "location":"China",
    "region":"Yunnan, China"
    }
  },
  {
    "type": "Feature",
    "geometry": {
       "type": "Point",
       "coordinates":  [ 110.0390015,25.21809959 ]
    },
    "properties": {
    "ID":15,
    "place":"Guilin",
    "location":"China",
    "region":"Guilin, China"
    }
  },
  {
    "type": "Feature",
    "geometry": {
       "type": "Point",
       "coordinates":  [ 118.278992,25.92448 ]
    },
    "properties": {
    "ID":16,
    "place":"Fujian",
    "location":"China",
    "region":"Fujian, China"
    }
  },
  {
    "type": "Feature",
    "geometry": {
       "type": "Point",
       "coordinates":  [ 106.559433,26.939581 ]
    },
    "properties": {
    "ID":17,
    "place":"Guizhou",
    "location":"China",
    "region":"Guizhou, China"
    }
  },
  {
    "type": "Feature",
    "geometry": {
       "type": "Point",
       "coordinates":  [ 116.01609,27.285971 ]
    },
    "properties": {
    "ID":18,
    "place":"Jiangxi",
    "location":"China",
    "region":"Jiangxi, China"
    }
  },
  {
    "type": "Feature",
    "geometry": {
       "type": "Point",
       "coordinates":  [ 111.510681,27.3818 ]
    },
    "properties": {
    "ID":19,
    "place":"Hunan",
    "location":"China",
    "region":"Hunan, China"
    }
  },
  {
    "type": "Feature",
    "geometry": {
       "type": "Point",
       "coordinates":  [ 112.938995,28.25189 ]
    },
    "properties": {
    "ID":20,
    "place":"Changsha",
    "location":"China",
    "region":"Changsha, China"
    }
  },
  {
    "type": "Feature",
    "geometry": {
       "type": "Point",
       "coordinates":  [ 115.9000015,28.86499977 ]
    },
    "properties": {
    "ID":21,
    "place":"Nanchang",
    "location":"China",
    "region":"Nanchang, China"
    }
  },
  {
    "type": "Feature",
    "geometry": {
       "type": "Point",
       "coordinates":  [ 120.326447,29.159849 ]
    },
    "properties": {
    "ID":22,
    "place":"Zhejiang",
    "location":"China",
    "region":"Zhejiang, China"
    }
  },
  {
    "type": "Feature",
    "geometry": {
       "type": "Point",
       "coordinates":  [ 115.801111,29.476944 ]
    },
    "properties": {
    "ID":23,
    "place":"Jiujiang",
    "location":"China",
    "region":"Jiujiang, China"
    }
  },
  {
    "type": "Feature",
    "geometry": {
       "type": "Point",
       "coordinates":  [ 121.546783,29.89375 ]
    },
    "properties": {
    "ID":24,
    "place":"Ningbo",
    "location":"China",
    "region":"Ningbo, China"
    }
  },
  {
    "type": "Feature",
    "geometry": {
       "type": "Point",
       "coordinates":  [ 111.479988,30.55655 ]
    },
    "properties": {
    "ID":25,
    "place":"Yichang",
    "location":"China",
    "region":"Yichang, China"
    }
  },
  {
    "type": "Feature",
    "geometry": {
       "type": "Point",
       "coordinates":  [ 103.9469986,30.57850075 ]
    },
    "properties": {
    "ID":26,
    "place":"Chengdu",
    "location":"China",
    "region":"Chengdu, China"
    }
  },
  {
    "type": "Feature",
    "geometry": {
       "type": "Point",
       "coordinates":  [ 117.924896,30.600677 ]
    },
    "properties": {
    "ID":27,
    "place":"Anhui",
    "location":"China",
    "region":"Anhui, China"
    }
  },
  {
    "type": "Feature",
    "geometry": {
       "type": "Point",
       "coordinates":  [ 104.075546,30.65209 ]
    },
    "properties": {
    "ID":28,
    "place":"Sichuan",
    "location":"China",
    "region":"Sichuan, China"
    }
  },
  {
    "type": "Feature",
    "geometry": {
       "type": "Point",
       "coordinates":  [ 114.2080002,30.78380013 ]
    },
    "properties": {
    "ID":29,
    "place":"Wuhan",
    "location":"China",
    "region":"Wuhan, China"
    }
  },
  {
    "type": "Feature",
    "geometry": {
       "type": "Point",
       "coordinates":  [ 117.7667,30.9333 ]
    },
    "properties": {
    "ID":30,
    "place":"Wusong",
    "location":"China",
    "region":"Wusong, China"
    }
  },
  {
    "type": "Feature",
    "geometry": {
       "type": "Point",
       "coordinates":  [ 112.255402,31.160629 ]
    },
    "properties": {
    "ID":31,
    "place":"Hubei",
    "location":"China",
    "region":"Hubei, China"
    }
  },
  {
    "type": "Feature",
    "geometry": {
       "type": "Point",
       "coordinates":  [ 121.3359985,31.19790077 ]
    },
    "properties": {
    "ID":32,
    "place":"Shanghai",
    "location":"China",
    "region":"Shanghai, China"
    }
  },
  {
    "type": "Feature",
    "geometry": {
       "type": "Point",
       "coordinates":  [ 118.408997,31.3906 ]
    },
    "properties": {
    "ID":33,
    "place":"Wuhu",
    "location":"China",
    "region":"Wuhu, China"
    }
  },
  {
    "type": "Feature",
    "geometry": {
       "type": "Point",
       "coordinates":  [ 118.8619995,31.74200058 ]
    },
    "properties": {
    "ID":34,
    "place":"Nanjing",
    "location":"China",
    "region":"Nanjing, China"
    }
  },
  {
    "type": "Feature",
    "geometry": {
       "type": "Point",
       "coordinates":  [ 119.151932,32.93708 ]
    },
    "properties": {
    "ID":35,
    "place":"Jiangsu",
    "location":"China",
    "region":"Jiangsu, China"
    }
  },
  {
    "type": "Feature",
    "geometry": {
       "type": "Point",
       "coordinates":  [ 112.844582,34.16312 ]
    },
    "properties": {
    "ID":36,
    "place":"Ruzhou",
    "location":"China",
    "region":"Ruzhou, China"
    }
  },
  {
    "type": "Feature",
    "geometry": {
       "type": "Point",
       "coordinates":  [ 108.937225,34.28513 ]
    },
    "properties": {
    "ID":37,
    "place":"Xi’an",
    "location":"China",
    "region":"Xi’an, China"
    }
  },
  {
    "type": "Feature",
    "geometry": {
       "type": "Point",
       "coordinates":  [ 112.3880005,34.74110031 ]
    },
    "properties": {
    "ID":38,
    "place":"Luoyang",
    "location":"China",
    "region":"Luoyang, China"
    }
  },
  {
    "type": "Feature",
    "geometry": {
       "type": "Point",
       "coordinates":  [ 118.769882,36.395859 ]
    },
    "properties": {
    "ID":39,
    "place":"Shandong",
    "location":"China",
    "region":"Shandong, China"
    }
  },
  {
    "type": "Feature",
    "geometry": {
       "type": "Point",
       "coordinates":  [ 118.493614,36.69281 ]
    },
    "properties": {
    "ID":40,
    "place":"Qingzhou",
    "location":"China",
    "region":"Qingzhou, China"
    }
  },
  {
    "type": "Feature",
    "geometry": {
       "type": "Point",
       "coordinates":  [ 118.829384,36.69887 ]
    },
    "properties": {
    "ID":41,
    "place":"Changle",
    "location":"China",
    "region":"Changle, China"
    }
  },
  {
    "type": "Feature",
    "geometry": {
       "type": "Point",
       "coordinates":  [ 112.389977,37.66119 ]
    },
    "properties": {
    "ID":42,
    "place":"Shanxi",
    "location":"China",
    "region":"Shanxi, China"
    }
  },
  {
    "type": "Feature",
    "geometry": {
       "type": "Point",
       "coordinates":  [ 101.100822,37.683189 ]
    },
    "properties": {
    "ID":43,
    "place":"Gansu",
    "location":"China",
    "region":"Gansu, China"
    }
  },
  {
    "type": "Feature",
    "geometry": {
       "type": "Point",
       "coordinates":  [ 112.6279984,37.74689865 ]
    },
    "properties": {
    "ID":44,
    "place":"Taiyuan",
    "location":"China",
    "region":"Taiyuan, China"
    }
  },
  {
    "type": "Feature",
    "geometry": {
       "type": "Point",
       "coordinates":  [ 117.3460007,39.12440109 ]
    },
    "properties": {
    "ID":45,
    "place":"Tianjin",
    "location":"China",
    "region":"Tianjin, China"
    }
  },
  {
    "type": "Feature",
    "geometry": {
       "type": "Point",
       "coordinates":  [ 109.8613889,39.49 ]
    },
    "properties": {
    "ID":46,
    "place":"Dongsheng",
    "location":"China",
    "region":"Dongsheng, China"
    }
  },
  {
    "type": "Feature",
    "geometry": {
       "type": "Point",
       "coordinates":  [ 116.656508,39.91028 ]
    },
    "properties": {
    "ID":47,
    "place":"Tongzhou",
    "location":"China",
    "region":"Tongzhou, China"
    }
  },
  {
    "type": "Feature",
    "geometry": {
       "type": "Point",
       "coordinates":  [ 116.5849991,40.08010101 ]
    },
    "properties": {
    "ID":48,
    "place":"Beijing",
    "location":"China",
    "region":"Beijing, China"
    }
  },
  {
    "type": "Feature",
    "geometry": {
       "type": "Point",
       "coordinates":  [ 123.4830017,41.63980103 ]
    },
    "properties": {
    "ID":49,
    "place":"Shenyang",
    "location":"China",
    "region":"Shenyang, China"
    }
  },
  {
    "type": "Feature",
    "geometry": {
       "type": "Point",
       "coordinates":  [ 119.90157,42.28501 ]
    },
    "properties": {
    "ID":50,
    "place":"Xinhui",
    "location":"China",
    "region":"Xinhui, China"
    }
  },
  {
    "type": "Feature",
    "geometry": {
       "type": "Point",
       "coordinates":  [ 127.40444,46.07516 ]
    },
    "properties": {
    "ID":51,
    "place":"Baoan",
    "location":"China",
    "region":"Baoan, China"
    }
  },
  {
    "type": "Feature",
    "geometry": {
       "type": "Point",
       "coordinates":  [ 127.48745,50.24294 ]
    },
    "properties": {
    "ID":52,
    "place":"Beihe",
    "location":"China",
    "region":"Beihe, China"
    }
  },
  {
    "type": "Feature",
    "geometry": {
       "type": "Point",
       "coordinates":  [ 107.604332,-6.86735 ]
    },
    "properties": {
    "ID":53,
    "place":"Java",
    "location":"Indonesia",
    "region":"Java, Indonesia"
    }
  },
  {
    "type": "Feature",
    "geometry": {
       "type": "Point",
       "coordinates":  [ 102.2519989,2.263360024 ]
    },
    "properties": {
    "ID":54,
    "place":"Malacca",
    "location":"Malaysia",
    "region":"Malacca, Malaysia"
    }
  },
  {
    "type": "Feature",
    "geometry": {
       "type": "Point",
       "coordinates":  [ 121.7419,25.1283 ]
    },
    "properties": {
    "ID":55,
    "place":"Keelung",
    "location":"Taiwan",
    "region":"Keelung, Taiwan"
    }
  },
  {
    "type": "Feature",
    "geometry": {
       "type": "Point",
       "coordinates":  [ 106.629662,10.823099 ]
    },
    "properties": {
    "ID":56,
    "place":"Ho Chi Minh City",
    "location":"Vietnam",
    "region":"Ho Chi Minh City, Vietnam"
    }
  },
  {
    "type": "Feature",
    "geometry": {
       "type": "Point",
       "coordinates":  [ 108.1989975,16.04389954 ]
    },
    "properties": {
    "ID":57,
    "place":"Danang",
    "location":"Vietnam",
    "region":"Danang, Vietnam"
    }
  },
  {
    "type": "Feature",
    "geometry": {
       "type": "Point",
       "coordinates":  [ 106.688087,20.844912 ]
    },
    "properties": {
    "ID":58,
    "place":"Hai Phong",
    "location":"Vietnam",
    "region":"Hai Phong, Vietnam"
    }
  },
  {
    "type": "Feature",
    "geometry": {
       "type": "Point",
       "coordinates":  [ 105.8860016,21.04050064 ]
    },
    "properties": {
    "ID":59,
    "place":"Hanoi",
    "location":"Vietnam",
    "region":"Hanoi, Vietnam"
    }
  },
  {
    "type": "Feature",
    "geometry": {
       "type": "Point",
       "coordinates":  [ 105.84451,21.5937 ]
    },
    "properties": {
    "ID":60,
    "place":"Tonkin",
    "location":"Vietnam",
    "region":"Tonkin, Vietnam"
    }
  },
  {
    "type": "Feature",
    "geometry": {
       "type": "Point",
       "coordinates":  [ 4.39677,50.717289 ]
    },
    "properties": {
    "ID":61,
    "place":"Waterloo",
    "location":"Belgium",
    "region":"Waterloo, Belgium"
    }
  },
  {
    "type": "Feature",
    "geometry": {
       "type": "Point",
       "coordinates":  [ 2.6553,42.76886 ]
    },
    "properties": {
    "ID":62,
    "place":"Latour",
    "location":"France",
    "region":"Latour, France"
    }
  },
  {
    "type": "Feature",
    "geometry": {
       "type": "Point",
       "coordinates":  [ 7.584167,43.821944 ]
    },
    "properties": {
    "ID":63,
    "place":"Bevera",
    "location":"France",
    "region":"Bevera, France"
    }
  },
  {
    "type": "Feature",
    "geometry": {
       "type": "Point",
       "coordinates":  [ 5.221424103,43.43927192 ]
    },
    "properties": {
    "ID":64,
    "place":"Marseille",
    "location":"France",
    "region":"Marseille, France"
    }
  },
  {
    "type": "Feature",
    "geometry": {
       "type": "Point",
       "coordinates":  [ 5.41291,43.45168 ]
    },
    "properties": {
    "ID":65,
    "place":"Bel-Air",
    "location":"France",
    "region":"Bel-Air, France"
    }
  },
  {
    "type": "Feature",
    "geometry": {
       "type": "Point",
       "coordinates":  [ 6.953479767,43.54199982 ]
    },
    "properties": {
    "ID":66,
    "place":"Cannes",
    "location":"France",
    "region":"Cannes, France"
    }
  },
  {
    "type": "Feature",
    "geometry": {
       "type": "Point",
       "coordinates":  [ 7.215869904,43.65840149 ]
    },
    "properties": {
    "ID":67,
    "place":"Nice",
    "location":"France",
    "region":"Nice, France"
    }
  },
  {
    "type": "Feature",
    "geometry": {
       "type": "Point",
       "coordinates":  [ 0.95743,44.04861 ]
    },
    "properties": {
    "ID":68,
    "place":"Lafite",
    "location":"France",
    "region":"Lafite, France"
    }
  },
  {
    "type": "Feature",
    "geometry": {
       "type": "Point",
       "coordinates":  [ -0.61848,44.81937 ]
    },
    "properties": {
    "ID":69,
    "place":"Haut-Brion",
    "location":"France",
    "region":"Haut-Brion, France"
    }
  },
  {
    "type": "Feature",
    "geometry": {
       "type": "Point",
       "coordinates":  [ -0.715556026,44.82830048 ]
    },
    "properties": {
    "ID":70,
    "place":"Bordeaux",
    "location":"France",
    "region":"Bordeaux, France"
    }
  },
  {
    "type": "Feature",
    "geometry": {
       "type": "Point",
       "coordinates":  [ -0.67625,45.04114 ]
    },
    "properties": {
    "ID":71,
    "place":"Margaux",
    "location":"France",
    "region":"Margaux, France"
    }
  },
  {
    "type": "Feature",
    "geometry": {
       "type": "Point",
       "coordinates":  [ 5.0811111,45.7255556 ]
    },
    "properties": {
    "ID":72,
    "place":"Lyon",
    "location":"France",
    "region":"Lyon, France"
    }
  },
  {
    "type": "Feature",
    "geometry": {
       "type": "Point",
       "coordinates":  [ 0.24236,45.89176 ]
    },
    "properties": {
    "ID":73,
    "place":"Mouton",
    "location":"France",
    "region":"Mouton, France"
    }
  },
  {
    "type": "Feature",
    "geometry": {
       "type": "Point",
       "coordinates":  [ 6.72966,47.48173 ]
    },
    "properties": {
    "ID":74,
    "place":"Bahans",
    "location":"France",
    "region":"Bahans, France"
    }
  },
  {
    "type": "Feature",
    "geometry": {
       "type": "Point",
       "coordinates":  [ 2.135,48.8053 ]
    },
    "properties": {
    "ID":75,
    "place":"Versailles",
    "location":"France",
    "region":"Versailles, France"
    }
  },
  {
    "type": "Feature",
    "geometry": {
       "type": "Point",
       "coordinates":  [ 14.60256,40.634369 ]
    },
    "properties": {
    "ID":76,
    "place":"Amalfi",
    "location":"Italy",
    "region":"Amalfi, Italy"
    }
  },
  {
    "type": "Feature",
    "geometry": {
       "type": "Point",
       "coordinates":  [ 14.2667,37.5667 ]
    },
    "properties": {
    "ID":77,
    "place":"Enna",
    "location":"Italy",
    "region":"Enna, Italy"
    }
  },
  {
    "type": "Feature",
    "geometry": {
       "type": "Point",
       "coordinates":  [ 13.25,41.6833 ]
    },
    "properties": {
    "ID":78,
    "place":"Ferentino",
    "location":"Italy",
    "region":"Ferentino, Italy"
    }
  },
  {
    "type": "Feature",
    "geometry": {
       "type": "Point",
       "coordinates":  [ 12.49427,41.89056 ]
    },
    "properties": {
    "ID":79,
    "place":"Helorus",
    "location":"Italy",
    "region":"Helorus, Italy"
    }
  },
  {
    "type": "Feature",
    "geometry": {
       "type": "Point",
       "coordinates":  [ 12.496365,44.755402 ]
    },
    "properties": {
    "ID":80,
    "place":"Rome",
    "location":"Italy",
    "region":"Rome, Italy"
    }
  },
  {
    "type": "Feature",
    "geometry": {
       "type": "Point",
       "coordinates":  [ 11.25693,43.7687 ]
    },
    "properties": {
    "ID":81,
    "place":"Florence",
    "location":"Italy",
    "region":"Florence, Italy"
    }
  },
  {
    "type": "Feature",
    "geometry": {
       "type": "Point",
       "coordinates":  [ 12.3072,44.224201 ]
    },
    "properties": {
    "ID":82,
    "place":"Cervia",
    "location":"Italy",
    "region":"Cervia, Italy"
    }
  },
  {
    "type": "Feature",
    "geometry": {
       "type": "Point",
       "coordinates":  [ 8.93399,44.407059 ]
    },
    "properties": {
    "ID":83,
    "place":"Genova",
    "location":"Italy",
    "region":"Genova, Italy"
    }
  },
  {
    "type": "Feature",
    "geometry": {
       "type": "Point",
       "coordinates":  [ 9.20333,45.542198 ]
    },
    "properties": {
    "ID":84,
    "place":"Milano",
    "location":"Italy",
    "region":"Milano, Italy"
    }
  },
  {
    "type": "Feature",
    "geometry": {
       "type": "Point",
       "coordinates":  [ 10.9383,45.734871 ]
    },
    "properties": {
    "ID":85,
    "place":"Avio",
    "location":"Italy",
    "region":"Avio, Italy"
    }
  },
  {
    "type": "Feature",
    "geometry": {
       "type": "Point",
       "coordinates":  [ 5.291266,52.132633 ]
    },
    "properties": {
    "ID":86,
    "place":"Netherlands",
    "location":"Netherlands",
    "region":"Netherlands, Netherlands"
    }
  },
  {
    "type": "Feature",
    "geometry": {
       "type": "Point",
       "coordinates":  [ 7.75,46.02 ]
    },
    "properties": {
    "ID":87,
    "place":"Zermatt",
    "location":"Switzerland",
    "region":"Zermatt, Switzerland"
    }
  },
  {
    "type": "Feature",
    "geometry": {
       "type": "Point",
       "coordinates":  [ 8.878609657,46.16080093 ]
    },
    "properties": {
    "ID":88,
    "place":"Locarno",
    "location":"Switzerland",
    "region":"Locarno, Switzerland"
    }
  },
  {
    "type": "Feature",
    "geometry": {
       "type": "Point",
       "coordinates":  [ 6.108950138,46.23809814 ]
    },
    "properties": {
    "ID":89,
    "place":"Geneva",
    "location":"Switzerland",
    "region":"Geneva, Switzerland"
    }
  },
  {
    "type": "Feature",
    "geometry": {
       "type": "Point",
       "coordinates":  [ 6.91511,46.43332 ]
    },
    "properties": {
    "ID":90,
    "place":"Montreux",
    "location":"Switzerland",
    "region":"Montreux, Switzerland"
    }
  },
  {
    "type": "Feature",
    "geometry": {
       "type": "Point",
       "coordinates":  [ 9.83844,46.49706 ]
    },
    "properties": {
    "ID":91,
    "place":"Moritz",
    "location":"Switzerland",
    "region":"Moritz, Switzerland"
    }
  },
  {
    "type": "Feature",
    "geometry": {
       "type": "Point",
       "coordinates":  [ 6.616670132,46.54529953 ]
    },
    "properties": {
    "ID":92,
    "place":"Lausanne",
    "location":"Switzerland",
    "region":"Lausanne, Switzerland"
    }
  },
  {
    "type": "Feature",
    "geometry": {
       "type": "Point",
       "coordinates":  [ 7.8790798,46.6766014 ]
    },
    "properties": {
    "ID":93,
    "place":"Interlaken",
    "location":"Switzerland",
    "region":"Interlaken, Switzerland"
    }
  },
  {
    "type": "Feature",
    "geometry": {
       "type": "Point",
       "coordinates":  [ 9.5314,46.85146 ]
    },
    "properties": {
    "ID":94,
    "place":"Chur",
    "location":"Switzerland",
    "region":"Chur, Switzerland"
    }
  },
  {
    "type": "Feature",
    "geometry": {
       "type": "Point",
       "coordinates":  [ 7.497149944,46.91410065 ]
    },
    "properties": {
    "ID":95,
    "place":"Bern",
    "location":"Switzerland",
    "region":"Bern, Switzerland"
    }
  },
  {
    "type": "Feature",
    "geometry": {
       "type": "Point",
       "coordinates":  [ 7.44813,46.948 ]
    },
    "properties": {
    "ID":96,
    "place":"Diveria",
    "location":"Switzerland",
    "region":"Diveria, Switzerland"
    }
  },
  {
    "type": "Feature",
    "geometry": {
       "type": "Point",
       "coordinates":  [ 6.864719868,46.95750046 ]
    },
    "properties": {
    "ID":97,
    "place":"Neuchatel",
    "location":"Switzerland",
    "region":"Neuchatel, Switzerland"
    }
  },
  {
    "type": "Feature",
    "geometry": {
       "type": "Point",
       "coordinates":  [ 8.48567,47.04326 ]
    },
    "properties": {
    "ID":98,
    "place":"Rigi",
    "location":"Switzerland",
    "region":"Rigi, Switzerland"
    }
  },
  {
    "type": "Feature",
    "geometry": {
       "type": "Point",
       "coordinates":  [ 8.30595,47.04797 ]
    },
    "properties": {
    "ID":99,
    "place":"Luzern",
    "location":"Switzerland",
    "region":"Luzern, Switzerland"
    }
  },
  {
    "type": "Feature",
    "geometry": {
       "type": "Point",
       "coordinates":  [ 9.37601,47.42642 ]
    },
    "properties": {
    "ID":100,
    "place":"Gallen",
    "location":"Switzerland",
    "region":"Gallen, Switzerland"
    }
  },
  {
    "type": "Feature",
    "geometry": {
       "type": "Point",
       "coordinates":  [ 8.54916954,47.46469879 ]
    },
    "properties": {
    "ID":101,
    "place":"Zurich",
    "location":"Switzerland",
    "region":"Zurich, Switzerland"
    }
  },
  {
    "type": "Feature",
    "geometry": {
       "type": "Point",
       "coordinates":  [ 8.86014,47.66004 ]
    },
    "properties": {
    "ID":102,
    "place":"Rhein",
    "location":"Switzerland",
    "region":"Rhein, Switzerland"
    }
  },
  {
    "type": "Feature",
    "geometry": {
       "type": "Point",
       "coordinates":  [ 1.29935,52.628101 ]
    },
    "properties": {
    "ID":103,
    "place":"Norfolk",
    "location":"England",
    "region":"Norfolk, England"
    }
  },
  {
    "type": "Feature",
    "geometry": {
       "type": "Point",
       "coordinates":  [ -3.10345,51.014648 ]
    },
    "properties": {
    "ID":104,
    "place":"Somerset",
    "location":"England",
    "region":"Somerset, England"
    }
  },
  {
    "type": "Feature",
    "geometry": {
       "type": "Point",
       "coordinates":  [ -0.1909,51.501888 ]
    },
    "properties": {
    "ID":105,
    "place":"Kensington",
    "location":"England",
    "region":"Kensington, England"
    }
  },
  {
    "type": "Feature",
    "geometry": {
       "type": "Point",
       "coordinates":  [ -3.47584,50.735958 ]
    },
    "properties": {
    "ID":106,
    "place":"Cumberland",
    "location":"England",
    "region":"Cumberland, England"
    }
  },
  {
    "type": "Feature",
    "geometry": {
       "type": "Point",
       "coordinates":  [ -0.30262,51.55225 ]
    },
    "properties": {
    "ID":107,
    "place":"Middlesex",
    "location":"England",
    "region":"Middlesex, England"
    }
  },
  {
    "type": "Feature",
    "geometry": {
       "type": "Point",
       "coordinates":  [ -1.19911,53.143871 ]
    },
    "properties": {
    "ID":108,
    "place":"Mansfield",
    "location":"England",
    "region":"Mansfield, England"
    }
  },
  {
    "type": "Feature",
    "geometry": {
       "type": "Point",
       "coordinates":  [ -1.58447,52.28194 ]
    },
    "properties": {
    "ID":109,
    "place":"Warwick",
    "location":"England",
    "region":"Warwick, England"
    }
  },
  {
    "type": "Feature",
    "geometry": {
       "type": "Point",
       "coordinates":  [ -0.23037,51.04037 ]
    },
    "properties": {
    "ID":110,
    "place":"Hampshire",
    "location":"England",
    "region":"Hampshire, England"
    }
  },
  {
    "type": "Feature",
    "geometry": {
       "type": "Point",
       "coordinates":  [ -0.53844,53.234859 ]
    },
    "properties": {
    "ID":111,
    "place":"Lincolnshire",
    "location":"England",
    "region":"Lincolnshire, England"
    }
  },
  {
    "type": "Feature",
    "geometry": {
       "type": "Point",
       "coordinates":  [ -0.46804,52.135712 ]
    },
    "properties": {
    "ID":112,
    "place":"Bedford",
    "location":"England",
    "region":"Bedford, England"
    }
  },
  {
    "type": "Feature",
    "geometry": {
       "type": "Point",
       "coordinates":  [ -0.127758,51.507351 ]
    },
    "properties": {
    "ID":113,
    "place":"London",
    "location":"England",
    "region":"London, England"
    }
  },
  {
    "type": "Feature",
    "geometry": {
       "type": "Point",
       "coordinates":  [ -1.69143,55.169418 ]
    },
    "properties": {
    "ID":114,
    "place":"Northumberland",
    "location":"England",
    "region":"Northumberland, England"
    }
  },
  {
    "type": "Feature",
    "geometry": {
       "type": "Point",
       "coordinates":  [ 0.7953,52.604069 ]
    },
    "properties": {
    "ID":115,
    "place":"Rutland",
    "location":"England",
    "region":"Rutland, England"
    }
  },
  {
    "type": "Feature",
    "geometry": {
       "type": "Point",
       "coordinates":  [ 0.05303,51.480358 ]
    },
    "properties": {
    "ID":116,
    "place":"Woolwich",
    "location":"England",
    "region":"Woolwich, England"
    }
  },
  {
    "type": "Feature",
    "geometry": {
       "type": "Point",
       "coordinates":  [ -5.0507,50.262951 ]
    },
    "properties": {
    "ID":117,
    "place":"Cornwall",
    "location":"England",
    "region":"Cornwall, England"
    }
  },
  {
    "type": "Feature",
    "geometry": {
       "type": "Point",
       "coordinates":  [ 0.521725,51.278709 ]
    },
    "properties": {
    "ID":118,
    "place":"Kent",
    "location":"England",
    "region":"Kent, England"
    }
  },
  {
    "type": "Feature",
    "geometry": {
       "type": "Point",
       "coordinates":  [ -0.57029,51.23642 ]
    },
    "properties": {
    "ID":119,
    "place":"Surrey",
    "location":"England",
    "region":"Surrey, England"
    }
  },
  {
    "type": "Feature",
    "geometry": {
       "type": "Point",
       "coordinates":  [ -3.716667,50.716667 ]
    },
    "properties": {
    "ID":120,
    "place":"Devon",
    "location":"England",
    "region":"Devon, England"
    }
  },
  {
    "type": "Feature",
    "geometry": {
       "type": "Point",
       "coordinates":  [ -2.344479,50.748764 ]
    },
    "properties": {
    "ID":121,
    "place":"Dorset",
    "location":"England",
    "region":"Dorset, England"
    }
  },
  {
    "type": "Feature",
    "geometry": {
       "type": "Point",
       "coordinates":  [ 0.290472,50.768036 ]
    },
    "properties": {
    "ID":122,
    "place":"Eastbourne",
    "location":"England",
    "region":"Eastbourne, England"
    }
  },
  {
    "type": "Feature",
    "geometry": {
       "type": "Point",
       "coordinates":  [ -0.631027,51.215485 ]
    },
    "properties": {
    "ID":123,
    "place":"Guildford",
    "location":"England",
    "region":"Guildford, England"
    }
  },
  {
    "type": "Feature",
    "geometry": {
       "type": "Point",
       "coordinates":  [ 0.52527,51.272644 ]
    },
    "properties": {
    "ID":124,
    "place":"Maidstone",
    "location":"England",
    "region":"Maidstone, England"
    }
  },
  {
    "type": "Feature",
    "geometry": {
       "type": "Point",
       "coordinates":  [ -2.9793,51.347618 ]
    },
    "properties": {
    "ID":125,
    "place":"Wiltshire",
    "location":"England",
    "region":"Wiltshire, England"
    }
  },
  {
    "type": "Feature",
    "geometry": {
       "type": "Point",
       "coordinates":  [ -2.71909,51.382702 ]
    },
    "properties": {
    "ID":126,
    "place":"Bristol",
    "location":"England",
    "region":"Bristol, England"
    }
  },
  {
    "type": "Feature",
    "geometry": {
       "type": "Point",
       "coordinates":  [ -0.3957,51.655 ]
    },
    "properties": {
    "ID":127,
    "place":"Watford",
    "location":"England",
    "region":"Watford, England"
    }
  },
  {
    "type": "Feature",
    "geometry": {
       "type": "Point",
       "coordinates":  [ 0.667367,51.765907 ]
    },
    "properties": {
    "ID":128,
    "place":"Essex",
    "location":"England",
    "region":"Essex, England"
    }
  },
  {
    "type": "Feature",
    "geometry": {
       "type": "Point",
       "coordinates":  [ -1.320000052,51.8368988 ]
    },
    "properties": {
    "ID":129,
    "place":"Oxford",
    "location":"England",
    "region":"Oxford, England"
    }
  },
  {
    "type": "Feature",
    "geometry": {
       "type": "Point",
       "coordinates":  [ -2.716,52.056499 ]
    },
    "properties": {
    "ID":130,
    "place":"Hereford",
    "location":"England",
    "region":"Hereford, England"
    }
  },
  {
    "type": "Feature",
    "geometry": {
       "type": "Point",
       "coordinates":  [ 0.97078,52.187248 ]
    },
    "properties": {
    "ID":131,
    "place":"Suffolk",
    "location":"England",
    "region":"Suffolk, England"
    }
  },
  {
    "type": "Feature",
    "geometry": {
       "type": "Point",
       "coordinates":  [ 0.174999997,52.20500183 ]
    },
    "properties": {
    "ID":132,
    "place":"Cambridge",
    "location":"England",
    "region":"Cambridge, England"
    }
  },
  {
    "type": "Feature",
    "geometry": {
       "type": "Point",
       "coordinates":  [ -2.4497,52.675869 ]
    },
    "properties": {
    "ID":133,
    "place":"Shropshire",
    "location":"England",
    "region":"Shropshire, England"
    }
  },
  {
    "type": "Feature",
    "geometry": {
       "type": "Point",
       "coordinates":  [ -2.117,52.807 ]
    },
    "properties": {
    "ID":134,
    "place":"Stafford",
    "location":"England",
    "region":"Stafford, England"
    }
  },
  {
    "type": "Feature",
    "geometry": {
       "type": "Point",
       "coordinates":  [ -1.466667,52.916668 ]
    },
    "properties": {
    "ID":135,
    "place":"Derby",
    "location":"England",
    "region":"Derby, England"
    }
  },
  {
    "type": "Feature",
    "geometry": {
       "type": "Point",
       "coordinates":  [ -2.17739,53.02578 ]
    },
    "properties": {
    "ID":136,
    "place":"Staffordshire",
    "location":"England",
    "region":"Staffordshire, England"
    }
  },
  {
    "type": "Feature",
    "geometry": {
       "type": "Point",
       "coordinates":  [ -2.89,53.189999 ]
    },
    "properties": {
    "ID":137,
    "place":"Chester",
    "location":"England",
    "region":"Chester, England"
    }
  },
  {
    "type": "Feature",
    "geometry": {
       "type": "Point",
       "coordinates":  [ -2.11766,53.541248 ]
    },
    "properties": {
    "ID":138,
    "place":"Lancashire",
    "location":"England",
    "region":"Lancashire, England"
    }
  },
  {
    "type": "Feature",
    "geometry": {
       "type": "Point",
       "coordinates":  [ -0.864722013,53.98059845 ]
    },
    "properties": {
    "ID":139,
    "place":"York",
    "location":"England",
    "region":"York, England"
    }
  },
  {
    "type": "Feature",
    "geometry": {
       "type": "Point",
       "coordinates":  [ -1.5733,54.7761 ]
    },
    "properties": {
    "ID":140,
    "place":"Durham",
    "location":"England",
    "region":"Durham, England"
    }
  },
  {
    "type": "Feature",
    "geometry": {
       "type": "Point",
       "coordinates":  [ -1.70896,55.412601 ]
    },
    "properties": {
    "ID":141,
    "place":"Alnwick",
    "location":"England",
    "region":"Alnwick, England"
    }
  },
  {
    "type": "Feature",
    "geometry": {
       "type": "Point",
       "coordinates":  [ -2.71955,56.05832 ]
    },
    "properties": {
    "ID":142,
    "place":"Berwick",
    "location":"Scotland",
    "region":"Berwick, Scotland"
    }
  },
  {
    "type": "Feature",
    "geometry": {
       "type": "Point",
       "coordinates":  [ -3.0264,56.17926 ]
    },
    "properties": {
    "ID":143,
    "place":"Tweed",
    "location":"Scotland",
    "region":"Tweed, Scotland"
    }
  },
  {
    "type": "Feature",
    "geometry": {
       "type": "Point",
       "coordinates":  [ -3.0996,56.303638 ]
    },
    "properties": {
    "ID":144,
    "place":"Fife",
    "location":"Scotland",
    "region":"Fife, Scotland"
    }
  },
  {
    "type": "Feature",
    "geometry": {
       "type": "Point",
       "coordinates":  [ -2.83895,55.548279 ]
    },
    "properties": {
    "ID":145,
    "place":"Selkirk",
    "location":"Scotland",
    "region":"Selkirk, Scotland"
    }
  },
  {
    "type": "Feature",
    "geometry": {
       "type": "Point",
       "coordinates":  [ -4.18078,55.74295 ]
    },
    "properties": {
    "ID":146,
    "place":"Lomond",
    "location":"Scotland",
    "region":"Lomond, Scotland"
    }
  },
  {
    "type": "Feature",
    "geometry": {
       "type": "Point",
       "coordinates":  [ -4.37005,55.86096 ]
    },
    "properties": {
    "ID":147,
    "place":"Zetland",
    "location":"Scotland",
    "region":"Zetland, Scotland"
    }
  },
  {
    "type": "Feature",
    "geometry": {
       "type": "Point",
       "coordinates":  [ -5.28841,55.533089 ]
    },
    "properties": {
    "ID":148,
    "place":"Arran",
    "location":"Scotland",
    "region":"Arran, Scotland"
    }
  },
  {
    "type": "Feature",
    "geometry": {
       "type": "Point",
       "coordinates":  [ -4.16353,55.846001 ]
    },
    "properties": {
    "ID":149,
    "place":"Grampian",
    "location":"Scotland",
    "region":"Grampian, Scotland"
    }
  },
  {
    "type": "Feature",
    "geometry": {
       "type": "Point",
       "coordinates":  [ -4.26801,55.791328 ]
    },
    "properties": {
    "ID":150,
    "place":"Moray",
    "location":"Scotland",
    "region":"Moray, Scotland"
    }
  },
  {
    "type": "Feature",
    "geometry": {
       "type": "Point",
       "coordinates":  [ -4.389,55.878 ]
    },
    "properties": {
    "ID":151,
    "place":"Renfrew",
    "location":"Scotland",
    "region":"Renfrew, Scotland"
    }
  },
  {
    "type": "Feature",
    "geometry": {
       "type": "Point",
       "coordinates":  [ -3.18205,55.88378 ]
    },
    "properties": {
    "ID":152,
    "place":"Pentland",
    "location":"Scotland",
    "region":"Pentland, Scotland"
    }
  },
  {
    "type": "Feature",
    "geometry": {
       "type": "Point",
       "coordinates":  [ -4.5667,55.95 ]
    },
    "properties": {
    "ID":153,
    "place":"Dumbarton",
    "location":"Scotland",
    "region":"Dumbarton, Scotland"
    }
  },
  {
    "type": "Feature",
    "geometry": {
       "type": "Point",
       "coordinates":  [ -2.5169,56.0027 ]
    },
    "properties": {
    "ID":154,
    "place":"Dunbar",
    "location":"Scotland",
    "region":"Dunbar, Scotland"
    }
  },
  {
    "type": "Feature",
    "geometry": {
       "type": "Point",
       "coordinates":  [ -2.82974,56.03548 ]
    },
    "properties": {
    "ID":155,
    "place":"Gullane",
    "location":"Scotland",
    "region":"Gullane, Scotland"
    }
  },
  {
    "type": "Feature",
    "geometry": {
       "type": "Point",
       "coordinates":  [ -3.9369,56.1166 ]
    },
    "properties": {
    "ID":156,
    "place":"Stirling",
    "location":"Scotland",
    "region":"Stirling, Scotland"
    }
  },
  {
    "type": "Feature",
    "geometry": {
       "type": "Point",
       "coordinates":  [ -3.437,56.396999 ]
    },
    "properties": {
    "ID":157,
    "place":"Perth",
    "location":"Scotland",
    "region":"Perth, Scotland"
    }
  },
  {
    "type": "Feature",
    "geometry": {
       "type": "Point",
       "coordinates":  [ -2.8884,56.6442 ]
    },
    "properties": {
    "ID":158,
    "place":"Forfar",
    "location":"Scotland",
    "region":"Forfar, Scotland"
    }
  },
  {
    "type": "Feature",
    "geometry": {
       "type": "Point",
       "coordinates":  [ -4.047500134,57.54249954 ]
    },
    "properties": {
    "ID":159,
    "place":"Inverness",
    "location":"Scotland",
    "region":"Inverness, Scotland"
    }
  },
  {
    "type": "Feature",
    "geometry": {
       "type": "Point",
       "coordinates":  [ -3.13656,53.248322 ]
    },
    "properties": {
    "ID":160,
    "place":"Flint",
    "location":"Wales",
    "region":"Flint, Wales"
    }
  },
  {
    "type": "Feature",
    "geometry": {
       "type": "Point",
       "coordinates":  [ -3.49379,51.650661 ]
    },
    "properties": {
    "ID":161,
    "place":"Rhondda",
    "location":"Wales",
    "region":"Rhondda, Wales"
    }
  },
  {
    "type": "Feature",
    "geometry": {
       "type": "Point",
       "coordinates":  [ -2.714501,51.816132 ]
    },
    "properties": {
    "ID":162,
    "place":"Monmouth",
    "location":"Wales",
    "region":"Monmouth, Wales"
    }
  },
  {
    "type": "Feature",
    "geometry": {
       "type": "Point",
       "coordinates":  [ -110.8998,32.4848 ]
    },
    "properties": {
    "ID":163,
    "place":"Catalina",
    "location":"USA",
    "region":"Catalina, USA"
    }
  },
  {
    "type": "Feature",
    "geometry": {
       "type": "Point",
       "coordinates":  [ -117.16,32.664 ]
    },
    "properties": {
    "ID":164,
    "place":"Coronado",
    "location":"USA",
    "region":"Coronado, USA"
    }
  },
  {
    "type": "Feature",
    "geometry": {
       "type": "Point",
       "coordinates":  [ -117.2149963,32.69919968 ]
    },
    "properties": {
    "ID":165,
    "place":"San Diego",
    "location":"USA",
    "region":"San Diego, USA"
    }
  },
  {
    "type": "Feature",
    "geometry": {
       "type": "Point",
       "coordinates":  [ -118.4509964,34.01580048 ]
    },
    "properties": {
    "ID":166,
    "place":"Santa Monica",
    "location":"USA",
    "region":"Santa Monica, USA"
    }
  },
  {
    "type": "Feature",
    "geometry": {
       "type": "Point",
       "coordinates":  [ -118.144755,34.148984 ]
    },
    "properties": {
    "ID":167,
    "place":"Pasadena",
    "location":"USA",
    "region":"Pasadena, USA"
    }
  },
  {
    "type": "Feature",
    "geometry": {
       "type": "Point",
       "coordinates":  [ -119.7202,34.4285 ]
    },
    "properties": {
    "ID":168,
    "place":"Santa Barbara",
    "location":"USA",
    "region":"Santa Barbara, USA"
    }
  },
  {
    "type": "Feature",
    "geometry": {
       "type": "Point",
       "coordinates":  [ -120.4570007,34.89889908 ]
    },
    "properties": {
    "ID":169,
    "place":"Santa Maria",
    "location":"USA",
    "region":"Santa Maria, USA"
    }
  },
  {
    "type": "Feature",
    "geometry": {
       "type": "Point",
       "coordinates":  [ -121.16198,35.71391 ]
    },
    "properties": {
    "ID":170,
    "place":"San Simeon",
    "location":"USA",
    "region":"San Simeon, USA"
    }
  },
  {
    "type": "Feature",
    "geometry": {
       "type": "Point",
       "coordinates":  [ -121.8430023,36.5870018 ]
    },
    "properties": {
    "ID":171,
    "place":"Monterey",
    "location":"USA",
    "region":"Monterey, USA"
    }
  },
  {
    "type": "Feature",
    "geometry": {
       "type": "Point",
       "coordinates":  [ -113.65418,37.133655 ]
    },
    "properties": {
    "ID":172,
    "place":"Santa Clara",
    "location":"USA",
    "region":"Santa Clara, USA"
    }
  },
  {
    "type": "Feature",
    "geometry": {
       "type": "Point",
       "coordinates":  [ -122.419467,37.774263 ]
    },
    "properties": {
    "ID":173,
    "place":"San Francisco",
    "location":"USA",
    "region":"San Francisco, USA"
    }
  },
  {
    "type": "Feature",
    "geometry": {
       "type": "Point",
       "coordinates":  [ -122.43439,37.86719 ]
    },
    "properties": {
    "ID":174,
    "place":"Angel Island",
    "location":"USA",
    "region":"Angel Island, USA"
    }
  },
  {
    "type": "Feature",
    "geometry": {
       "type": "Point",
       "coordinates":  [ -122.51254,37.87365 ]
    },
    "properties": {
    "ID":175,
    "place":"Marin",
    "location":"USA",
    "region":"Marin, USA"
    }
  },
  {
    "type": "Feature",
    "geometry": {
       "type": "Point",
       "coordinates":  [ -122.280998,38.2132 ]
    },
    "properties": {
    "ID":176,
    "place":"Napa",
    "location":"USA",
    "region":"Napa, USA"
    }
  },
  {
    "type": "Feature",
    "geometry": {
       "type": "Point",
       "coordinates":  [ -121.2979965,38.55390167 ]
    },
    "properties": {
    "ID":177,
    "place":"Sacramento",
    "location":"USA",
    "region":"Sacramento, USA"
    }
  },
  {
    "type": "Feature",
    "geometry": {
       "type": "Point",
       "coordinates":  [ -121.924431,36.552509 ]
    },
    "properties": {
    "ID":178,
    "place":"Carmel",
    "location":"USA",
    "region":"Carmel, USA"
    }
  },
  {
    "type": "Feature",
    "geometry": {
       "type": "Point",
       "coordinates":  [ -122.21116,37.7684 ]
    },
    "properties": {
    "ID":179,
    "place":"Melrose",
    "location":"USA",
    "region":"Melrose, USA"
    }
  },
  {
    "type": "Feature",
    "geometry": {
       "type": "Point",
       "coordinates":  [ -119.294518,34.280491 ]
    },
    "properties": {
    "ID":180,
    "place":"Ventura",
    "location":"USA",
    "region":"Ventura, USA"
    }
  },
  {
    "type": "Feature",
    "geometry": {
       "type": "Point",
       "coordinates":  [ 8.92169,52.289398 ]
    },
    "properties": {
    "ID":181,
    "place":"Minden",
    "location":"Germany",
    "region":"Minden, Germany"
    }
  },
  {
    "type": "Feature",
    "geometry": {
       "type": "Point",
       "coordinates":  [ -0.2001848684,44.9306769 ]
    },
    "properties": {
    "ID":182,
    "place":"Petrus",
    "location":"France",
    "region":"Petrus, France"
    }
  },
  {
    "type": "Feature",
    "geometry": {
       "type": "Point",
       "coordinates":  [ 11.31557,43.58445 ]
    },
    "properties": {
    "ID":183,
    "place":"Chianti",
    "location":"Italy",
    "region":"Chianti, Italy"
    }
  },
  {
    "type": "Feature",
    "geometry": {
       "type": "Point",
       "coordinates":  [ 11.33051,43.318661 ]
    },
    "properties": {
    "ID":184,
    "place":"Siena",
    "location":"Italy",
    "region":"Siena, Italy"
    }
  },
  {
    "type": "Feature",
    "geometry": {
       "type": "Point",
       "coordinates":  [ -116.545296,33.830296 ]
    },
    "properties": {
    "ID":185,
    "place":"Palm Springs",
    "location":"USA",
    "region":"Palm Springs, USA"
    }
  },
  {
    "type": "Feature",
    "geometry": {
       "type": "Point",
       "coordinates":  [ -0.1120106727,51.51633091 ]
    },
    "properties": {
    "ID":186,
    "place":"Chancery Lane",
    "location":"London",
    "region":"Chancery Lane, London"
    }
  },
  {
    "type": "Feature",
    "geometry": {
       "type": "Point",
       "coordinates":  [ -0.127893259,51.50131457 ]
    },
    "properties": {
    "ID":187,
    "place":"Great George Street",
    "location":"London",
    "region":"Great George Street, London"
    }
  },
  {
    "type": "Feature",
    "geometry": {
       "type": "Point",
       "coordinates":  [ -0.1152289419,51.49399609 ]
    },
    "properties": {
    "ID":188,
    "place":"Lambeth Walk",
    "location":"London",
    "region":"Lambeth Walk, London"
    }
  },
  {
    "type": "Feature",
    "geometry": {
       "type": "Point",
       "coordinates":  [ -0.1022566412,51.51518956 ]
    },
    "properties": {
    "ID":189,
    "place":"Old Bailey",
    "location":"London",
    "region":"Old Bailey, London"
    }
  },
  {
    "type": "Feature",
    "geometry": {
       "type": "Point",
       "coordinates":  [ -0.10366,51.51811 ]
    },
    "properties": {
    "ID":190,
    "place":"Smithfield",
    "location":"London",
    "region":"Smithfield, London"
    }
  },
  {
    "type": "Feature",
    "geometry": {
       "type": "Point",
       "coordinates":  [ -3.188683,50.799469 ]
    },
    "properties": {
    "ID":191,
    "place":"Honiton",
    "location":"Devon",
    "region":"Honiton, Devon"
    }
  },
  {
    "type": "Feature",
    "geometry": {
       "type": "Point",
       "coordinates":  [ -0.11532,51.587799 ]
    },
    "properties": {
    "ID":192,
    "place":"Hornsey",
    "location":"London",
    "region":"Hornsey, London"
    }
  },
  {
    "type": "Feature",
    "geometry": {
       "type": "Point",
       "coordinates":  [ 2.88841,50.90036 ]
    },
    "properties": {
    "ID":193,
    "place":"Pilkem",
    "location":"Boezinge",
    "region":"Pilkem, Boezinge"
    }
  }
]
}